{"type":"FeatureCollection","features":[{"type":"Feature","id":"boernehuse.1","geometry":{"type":"Point","coordinates":[10.441424,55.32829]},"geometry_name":"wkb_geometry","properties":{"boernehus":"Børnehuset Brobækken","adresse":"Brobæklunden 50","long":10.441424,"lat":55.32829}},{"type":"Feature","id":"boernehuse.2","geometry":{"type":"Point","coordinates":[10.373861,55.365062]},"geometry_name":"wkb_geometry","properties":{"boernehus":"Børnehuset Dalum","adresse":"Dalumvej 103","long":10.373861,"lat":55.365062}},{"type":"Feature","id":"boernehuse.3","geometry":{"type":"Point","coordinates":[10.342009,55.365288]},"geometry_name":"wkb_geometry","properties":{"boernehus":"Børnehuset Dragebakken","adresse":"Dragebakken 25","long":10.342009,"lat":55.365288}},{"type":"Feature","id":"boernehuse.4","geometry":{"type":"Point","coordinates":[10.357959,55.361452]},"geometry_name":"wkb_geometry","properties":{"boernehus":"Børnehuset Afrodite","adresse":"Athenevænget 8","long":10.357959,"lat":55.361452}},{"type":"Feature","id":"boernehuse.5","geometry":{"type":"Point","coordinates":[10.339684,55.351887]},"geometry_name":"wkb_geometry","properties":{"boernehus":"Børnehuset Dyrup","adresse":"Højmevænget 44","long":10.339684,"lat":55.351887}},{"type":"Feature","id":"boernehuse.6","geometry":{"type":"Point","coordinates":[10.302559,55.337615]},"geometry_name":"wkb_geometry","properties":{"boernehus":"Børnehuset Bellinge","adresse":"Rughøjvej 94","long":10.302559,"lat":55.337615}},{"type":"Feature","id":"boernehuse.7","geometry":{"type":"Point","coordinates":[10.370818,55.346494]},"geometry_name":"wkb_geometry","properties":{"boernehus":"Børnehuset Rulkedalen","adresse":"Rulkedalen 2","long":10.370818,"lat":55.346494}},{"type":"Feature","id":"boernehuse.8","geometry":{"type":"Point","coordinates":[10.385281,55.349558]},"geometry_name":"wkb_geometry","properties":{"boernehus":"Børnehuset Torpegården","adresse":"Sommerfuglevej 27","long":10.385281,"lat":55.349558}},{"type":"Feature","id":"boernehuse.9","geometry":{"type":"Point","coordinates":[10.380839,55.360545]},"geometry_name":"wkb_geometry","properties":{"boernehus":"Børnehuset Asgård","adresse":"Zachariasvænget 2","long":10.380839,"lat":55.360545}},{"type":"Feature","id":"boernehuse.10","geometry":{"type":"Point","coordinates":[10.402608,55.36013]},"geometry_name":"wkb_geometry","properties":{"boernehus":"Børnehuset Bolden","adresse":"Godhedsmindevej 20","long":10.402608,"lat":55.36013}},{"type":"Feature","id":"boernehuse.11","geometry":{"type":"Point","coordinates":[10.398125,55.368123]},"geometry_name":"wkb_geometry","properties":{"boernehus":"Børnehuset Mælkebøtten","adresse":"Landbrugsvej 45","long":10.398125,"lat":55.368123}},{"type":"Feature","id":"boernehuse.12","geometry":{"type":"Point","coordinates":[10.406436,55.359095]},"geometry_name":"wkb_geometry","properties":{"boernehus":"Børnehuset Bjørnemosen","adresse":"Bjørnemosevej 215","long":10.406436,"lat":55.359095}},{"type":"Feature","id":"boernehuse.13","geometry":{"type":"Point","coordinates":[10.434737,55.333487]},"geometry_name":"wkb_geometry","properties":{"boernehus":"Børnehuset Skovløkken","adresse":"Klaus Berntsens Vej 15","long":10.434737,"lat":55.333487}},{"type":"Feature","id":"boernehuse.14","geometry":{"type":"Point","coordinates":[10.428453,55.342204]},"geometry_name":"wkb_geometry","properties":{"boernehus":"Børnehuset Højby Børnecenter","adresse":"Syvhøjevej 10","long":10.428453,"lat":55.342204}},{"type":"Feature","id":"boernehuse.15","geometry":{"type":"Point","coordinates":[10.294412,55.316049]},"geometry_name":"wkb_geometry","properties":{"boernehus":"Børnehuset Borreby-Fangel","adresse":"Borrebyvej 50","long":10.294412,"lat":55.316049}},{"type":"Feature","id":"boernehuse.16","geometry":{"type":"Point","coordinates":[10.342725,55.336468]},"geometry_name":"wkb_geometry","properties":{"boernehus":"Børnehuset Svenstrup","adresse":"Østerdalen 6","long":10.342725,"lat":55.336468}},{"type":"Feature","id":"boernehuse.17","geometry":{"type":"Point","coordinates":[10.384762,55.360275]},"geometry_name":"wkb_geometry","properties":{"boernehus":"Børnehuset Skovmosen","adresse":"Jacob Hansens Vej 103","long":10.384762,"lat":55.360275}},{"type":"Feature","id":"boernehuse.18","geometry":{"type":"Point","coordinates":[10.358031,55.364301]},"geometry_name":"wkb_geometry","properties":{"boernehus":"Børnehuset Dianagården","adresse":"Dianavænget 1","long":10.358031,"lat":55.364301}},{"type":"Feature","id":"boernehuse.19","geometry":{"type":"Point","coordinates":[10.366235,55.367333]},"geometry_name":"wkb_geometry","properties":{"boernehus":"Børnehuset Midgård","adresse":"Bøgedals Allé 37","long":10.366235,"lat":55.367333}},{"type":"Feature","id":"boernehuse.20","geometry":{"type":"Point","coordinates":[10.353137,55.36212]},"geometry_name":"wkb_geometry","properties":{"boernehus":"Børnehuset Dalumgård","adresse":"Heliosvænget 18","long":10.353137,"lat":55.36212}},{"type":"Feature","id":"boernehuse.21","geometry":{"type":"Point","coordinates":[10.345706,55.372915]},"geometry_name":"wkb_geometry","properties":{"boernehus":"Børnehuset Sanderum","adresse":"Prins Haralds Alle 103","long":10.345706,"lat":55.372915}},{"type":"Feature","id":"boernehuse.22","geometry":{"type":"Point","coordinates":[10.343206,55.368109]},"geometry_name":"wkb_geometry","properties":{"boernehus":"Børnehuset Lahns","adresse":"Sanderumvej 66","long":10.343206,"lat":55.368109}},{"type":"Feature","id":"boernehuse.23","geometry":{"type":"Point","coordinates":[10.34253,55.372772]},"geometry_name":"wkb_geometry","properties":{"boernehus":"Børnehuset Mågebakken","adresse":"Mågebakken 150","long":10.34253,"lat":55.372772}},{"type":"Feature","id":"boernehuse.24","geometry":{"type":"Point","coordinates":[10.3272,55.366407]},"geometry_name":"wkb_geometry","properties":{"boernehus":"Børnehuset Virkensbjerget","adresse":"Virkensbjerget 4","long":10.3272,"lat":55.366407}},{"type":"Feature","id":"boernehuse.25","geometry":{"type":"Point","coordinates":[10.337895,55.34757]},"geometry_name":"wkb_geometry","properties":{"boernehus":"Børnehuset Åhaven","adresse":"Ranunkelvænget 82","long":10.337895,"lat":55.34757}},{"type":"Feature","id":"boernehuse.26","geometry":{"type":"Point","coordinates":[10.337412,55.347109]},"geometry_name":"wkb_geometry","properties":{"boernehus":"Børnehuset Elisehaven","adresse":"Ranunkelvænget 84","long":10.337412,"lat":55.347109}},{"type":"Feature","id":"boernehuse.27","geometry":{"type":"Point","coordinates":[10.331521,55.347567]},"geometry_name":"wkb_geometry","properties":{"boernehus":"Børnehuset Tranehøjen","adresse":"Tranehøjen 342","long":10.331521,"lat":55.347567}},{"type":"Feature","id":"boernehuse.28","geometry":{"type":"Point","coordinates":[10.32049,55.341229]},"geometry_name":"wkb_geometry","properties":{"boernehus":"Børnehuset Kærsgård","adresse":"Sædekildegårdvej 2","long":10.32049,"lat":55.341229}},{"type":"Feature","id":"boernehuse.29","geometry":{"type":"Point","coordinates":[10.319368,55.342275]},"geometry_name":"wkb_geometry","properties":{"boernehus":"Børnehuset Hobitten","adresse":"Sædekildegårdvej 8","long":10.319368,"lat":55.342275}},{"type":"Feature","id":"boernehuse.30","geometry":{"type":"Point","coordinates":[10.299677,55.341377]},"geometry_name":"wkb_geometry","properties":{"boernehus":"Børnehuset Lungstedvangen","adresse":"Lungstedvangen 2","long":10.299677,"lat":55.341377}},{"type":"Feature","id":"boernehuse.31","geometry":{"type":"Point","coordinates":[10.431615,55.404218]},"geometry_name":"wkb_geometry","properties":{"boernehus":"Børnehuset Lærkeparken Vuggestue","adresse":"Lærkeparken 70","long":10.431615,"lat":55.404218}},{"type":"Feature","id":"boernehuse.32","geometry":{"type":"Point","coordinates":[10.406572,55.399613]},"geometry_name":"wkb_geometry","properties":{"boernehus":"Børnehuset Storkereden","adresse":"Langelandsgade 4","long":10.406572,"lat":55.399613}},{"type":"Feature","id":"boernehuse.33","geometry":{"type":"Point","coordinates":[10.477149,55.43031]},"geometry_name":"wkb_geometry","properties":{"boernehus":"Børnehuset Pilebækken","adresse":"Brolandvænget 4","long":10.477149,"lat":55.43031}},{"type":"Feature","id":"boernehuse.34","geometry":{"type":"Point","coordinates":[10.438389,55.409115]},"geometry_name":"wkb_geometry","properties":{"boernehus":"Børnehuset Egeparken","adresse":"Egeparken 58","long":10.438389,"lat":55.409115}},{"type":"Feature","id":"boernehuse.35","geometry":{"type":"Point","coordinates":[10.43845,55.426585]},"geometry_name":"wkb_geometry","properties":{"boernehus":"Børnehuset Seden","adresse":"Hyldegårdsvej 43","long":10.43845,"lat":55.426585}},{"type":"Feature","id":"boernehuse.36","geometry":{"type":"Point","coordinates":[10.431639,55.404839]},"geometry_name":"wkb_geometry","properties":{"boernehus":"Børnehuset Lærkeparken","adresse":"Lærkeparken 72","long":10.431639,"lat":55.404839}},{"type":"Feature","id":"boernehuse.37","geometry":{"type":"Point","coordinates":[10.437068,55.404928]},"geometry_name":"wkb_geometry","properties":{"boernehus":"Børnehuset Fyrreparken","adresse":"Fyrreparken 88","long":10.437068,"lat":55.404928}},{"type":"Feature","id":"boernehuse.38","geometry":{"type":"Point","coordinates":[10.461056,55.424026]},"geometry_name":"wkb_geometry","properties":{"boernehus":"Børnehuset Hvenekilden","adresse":"Hvenekildeløkken 170","long":10.461056,"lat":55.424026}},{"type":"Feature","id":"boernehuse.39","geometry":{"type":"Point","coordinates":[10.395898,55.399433]},"geometry_name":"wkb_geometry","properties":{"boernehus":"Børnehuset Bethania","adresse":"Ryttergade 3","long":10.395898,"lat":55.399433}},{"type":"Feature","id":"boernehuse.40","geometry":{"type":"Point","coordinates":[10.394512,55.414954]},"geometry_name":"wkb_geometry","properties":{"boernehus":"Børnehuset Egebæk","adresse":"Egebæksvej 12","long":10.394512,"lat":55.414954}},{"type":"Feature","id":"boernehuse.41","geometry":{"type":"Point","coordinates":[10.403981,55.415715]},"geometry_name":"wkb_geometry","properties":{"boernehus":"Børnehuset Skarntyden","adresse":"Monbergsvej 36","long":10.403981,"lat":55.415715}},{"type":"Feature","id":"boernehuse.42","geometry":{"type":"Point","coordinates":[10.41524,55.414286]},"geometry_name":"wkb_geometry","properties":{"boernehus":"Børnehuset Rising","adresse":"Tornehøjvej 1","long":10.41524,"lat":55.414286}},{"type":"Feature","id":"boernehuse.43","geometry":{"type":"Point","coordinates":[10.3874,55.407392]},"geometry_name":"wkb_geometry","properties":{"boernehus":"Børnehuset Tolderlunden","adresse":"Tolderlundsvej 31","long":10.3874,"lat":55.407392}},{"type":"Feature","id":"boernehuse.44","geometry":{"type":"Point","coordinates":[10.433813,55.415881]},"geometry_name":"wkb_geometry","properties":{"boernehus":"Børnehuset Atlantis","adresse":"Birkeparken 122","long":10.433813,"lat":55.415881}},{"type":"Feature","id":"boernehuse.45","geometry":{"type":"Point","coordinates":[10.454303,55.421904]},"geometry_name":"wkb_geometry","properties":{"boernehus":"Børnehuset Fridasholm","adresse":"Fridasholmvej 3","long":10.454303,"lat":55.421904}},{"type":"Feature","id":"boernehuse.46","geometry":{"type":"Point","coordinates":[10.44735,55.405687]},"geometry_name":"wkb_geometry","properties":{"boernehus":"Børnehuset Kildegården","adresse":"Kildegårdsvej 83","long":10.44735,"lat":55.405687}},{"type":"Feature","id":"boernehuse.47","geometry":{"type":"Point","coordinates":[10.43637,55.412811]},"geometry_name":"wkb_geometry","properties":{"boernehus":"Børnehuset Bøgelund","adresse":"Bøgeparken 130","long":10.43637,"lat":55.412811}},{"type":"Feature","id":"boernehuse.48","geometry":{"type":"Point","coordinates":[10.427541,55.417379]},"geometry_name":"wkb_geometry","properties":{"boernehus":"Børnehuset Slåenhaven","adresse":"Slåenhaven 12","long":10.427541,"lat":55.417379}},{"type":"Feature","id":"boernehuse.49","geometry":{"type":"Point","coordinates":[10.437054,55.404301]},"geometry_name":"wkb_geometry","properties":{"boernehus":"Børnehuset Fyrrenålen","adresse":"Fyrreparken 86","long":10.437054,"lat":55.404301}},{"type":"Feature","id":"boernehuse.50","geometry":{"type":"Point","coordinates":[10.43258,55.401587]},"geometry_name":"wkb_geometry","properties":{"boernehus":"Børnehuset Planteskolen","adresse":"Åsumvej 119","long":10.43258,"lat":55.401587}},{"type":"Feature","id":"boernehuse.51","geometry":{"type":"Point","coordinates":[10.446606,55.406897]},"geometry_name":"wkb_geometry","properties":{"boernehus":"Børnehuset Kildegården - Muldvarpen","adresse":"Kildegårdsvej 50","long":10.446606,"lat":55.406897}},{"type":"Feature","id":"boernehuse.52","geometry":{"type":"Point","coordinates":[10.398261,55.417081]},"geometry_name":"wkb_geometry","properties":{"boernehus":"Børnehuset Ankergården","adresse":"Ankergade 8","long":10.398261,"lat":55.417081}},{"type":"Feature","id":"boernehuse.53","geometry":{"type":"Point","coordinates":[10.41905,55.405771]},"geometry_name":"wkb_geometry","properties":{"boernehus":"Børnehuset Bakkegården","adresse":"Risingsvej 43","long":10.41905,"lat":55.405771}},{"type":"Feature","id":"boernehuse.54","geometry":{"type":"Point","coordinates":[10.416221,55.404495]},"geometry_name":"wkb_geometry","properties":{"boernehus":"Børnehuset Kernehuset","adresse":"Petersmindevej 31","long":10.416221,"lat":55.404495}},{"type":"Feature","id":"boernehuse.55","geometry":{"type":"Point","coordinates":[10.400843,55.411372]},"geometry_name":"wkb_geometry","properties":{"boernehus":"Børnehuset Svanegården","adresse":"Teisensvej 42","long":10.400843,"lat":55.411372}},{"type":"Feature","id":"boernehuse.56","geometry":{"type":"Point","coordinates":[10.399096,55.400851]},"geometry_name":"wkb_geometry","properties":{"boernehus":"Børnehuset Tommeliden","adresse":"Danmarksgade 10","long":10.399096,"lat":55.400851}},{"type":"Feature","id":"boernehuse.57","geometry":{"type":"Point","coordinates":[10.398258,55.400653]},"geometry_name":"wkb_geometry","properties":{"boernehus":"Børnehuset Østre","adresse":"Danmarksgade 2","long":10.398258,"lat":55.400653}},{"type":"Feature","id":"boernehuse.58","geometry":{"type":"Point","coordinates":[10.399573,55.405553]},"geometry_name":"wkb_geometry","properties":{"boernehus":"Børnehuset Unsgaard","adresse":"Unsgaardsgade 1A","long":10.399573,"lat":55.405553}},{"type":"Feature","id":"boernehuse.59","geometry":{"type":"Point","coordinates":[10.390021,55.413622]},"geometry_name":"wkb_geometry","properties":{"boernehus":"Børnehuset Solgården","adresse":"Victoriagade 36","long":10.390021,"lat":55.413622}},{"type":"Feature","id":"boernehuse.60","geometry":{"type":"Point","coordinates":[10.395104,55.403762]},"geometry_name":"wkb_geometry","properties":{"boernehus":"Børnehuset Juelsgade","adresse":"Juelsgade 1","long":10.395104,"lat":55.403762}},{"type":"Feature","id":"boernehuse.61","geometry":{"type":"Point","coordinates":[10.268006,55.419188]},"geometry_name":"wkb_geometry","properties":{"boernehus":"Børnehuset Troldehaven Vuggestue","adresse":"Billeshavevej 25","long":10.268006,"lat":55.419188}},{"type":"Feature","id":"boernehuse.62","geometry":{"type":"Point","coordinates":[10.35244,55.393235]},"geometry_name":"wkb_geometry","properties":{"boernehus":"Børnehuset Spiloppen","adresse":"Stadionvej 66A","long":10.35244,"lat":55.393235}},{"type":"Feature","id":"boernehuse.63","geometry":{"type":"Point","coordinates":[10.37038,55.416176]},"geometry_name":"wkb_geometry","properties":{"boernehus":"Børnehuset Næsbyhovedgård","adresse":"Fuglsang 8","long":10.37038,"lat":55.416176}},{"type":"Feature","id":"boernehuse.64","geometry":{"type":"Point","coordinates":[10.363156,55.420665]},"geometry_name":"wkb_geometry","properties":{"boernehus":"Børnehuset Louisegården","adresse":"Louisevænget 9","long":10.363156,"lat":55.420665}},{"type":"Feature","id":"boernehuse.65","geometry":{"type":"Point","coordinates":[10.347167,55.422978]},"geometry_name":"wkb_geometry","properties":{"boernehus":"Børnehuset Kastaniegården","adresse":"Bogensevej 135","long":10.347167,"lat":55.422978}},{"type":"Feature","id":"boernehuse.66","geometry":{"type":"Point","coordinates":[10.343408,55.425164]},"geometry_name":"wkb_geometry","properties":{"boernehus":"Børnehuset Eventyrgården","adresse":"Nordmarksvej 3","long":10.343408,"lat":55.425164}},{"type":"Feature","id":"boernehuse.67","geometry":{"type":"Point","coordinates":[10.331649,55.431775]},"geometry_name":"wkb_geometry","properties":{"boernehus":"Børnehuset Ærtebjerggård","adresse":"Ærtebjerggårdvej 88","long":10.331649,"lat":55.431775}},{"type":"Feature","id":"boernehuse.68","geometry":{"type":"Point","coordinates":[10.415653,55.436933]},"geometry_name":"wkb_geometry","properties":{"boernehus":"Børnehuset Stige","adresse":"Skippervej 9B","long":10.415653,"lat":55.436933}},{"type":"Feature","id":"boernehuse.69","geometry":{"type":"Point","coordinates":[10.278736,55.404388]},"geometry_name":"wkb_geometry","properties":{"boernehus":"Børnehuset Ejlstrup","adresse":"Ejlstrupvej 145","long":10.278736,"lat":55.404388}},{"type":"Feature","id":"boernehuse.70","geometry":{"type":"Point","coordinates":[10.268006,55.419188]},"geometry_name":"wkb_geometry","properties":{"boernehus":"Børnehuset Troldehaven","adresse":"Billeshavevej 23","long":10.268006,"lat":55.419188}},{"type":"Feature","id":"boernehuse.71","geometry":{"type":"Point","coordinates":[10.271937,55.421743]},"geometry_name":"wkb_geometry","properties":{"boernehus":"Børnehuset Elsdyrløkken","adresse":"Elsdyrløkken 87","long":10.271937,"lat":55.421743}},{"type":"Feature","id":"boernehuse.72","geometry":{"type":"Point","coordinates":[10.3193,55.416416]},"geometry_name":"wkb_geometry","properties":{"boernehus":"Børnehuset Fuglereden","adresse":"Gransangervej 35","long":10.3193,"lat":55.416416}},{"type":"Feature","id":"boernehuse.73","geometry":{"type":"Point","coordinates":[10.315305,55.408481]},"geometry_name":"wkb_geometry","properties":{"boernehus":"Børnehuset Pårup","adresse":"Paarupvej 19","long":10.315305,"lat":55.408481}},{"type":"Feature","id":"boernehuse.74","geometry":{"type":"Point","coordinates":[10.261204,55.426183]},"geometry_name":"wkb_geometry","properties":{"boernehus":"Børnehuset Kronhjortløkken","adresse":"Kronhjortløkken 165","long":10.261204,"lat":55.426183}},{"type":"Feature","id":"boernehuse.75","geometry":{"type":"Point","coordinates":[10.32805,55.411345]},"geometry_name":"wkb_geometry","properties":{"boernehus":"Børnehuset Tingvallagården","adresse":"Tingvallavej 69","long":10.32805,"lat":55.411345}},{"type":"Feature","id":"boernehuse.76","geometry":{"type":"Point","coordinates":[10.355119,55.399957]},"geometry_name":"wkb_geometry","properties":{"boernehus":"Børnehuset Solskrænten","adresse":"Rasmus Nielsens Vej 2","long":10.355119,"lat":55.399957}},{"type":"Feature","id":"boernehuse.77","geometry":{"type":"Point","coordinates":[10.355015,55.40911]},"geometry_name":"wkb_geometry","properties":{"boernehus":"Børnehuset Tarup","adresse":"Tarupgårdsvej 11","long":10.355015,"lat":55.40911}},{"type":"Feature","id":"boernehuse.78","geometry":{"type":"Point","coordinates":[10.352163,55.392909]},"geometry_name":"wkb_geometry","properties":{"boernehus":"Børnehuset Myretuen","adresse":"Stadionvej 66C","long":10.352163,"lat":55.392909}},{"type":"Feature","id":"boernehuse.79","geometry":{"type":"Point","coordinates":[10.277556,55.4222]},"geometry_name":"wkb_geometry","properties":{"boernehus":"Børnehuset Grævlingeløkken","adresse":"Grævlingløkken 101","long":10.277556,"lat":55.4222}},{"type":"Feature","id":"boernehuse.80","geometry":{"type":"Point","coordinates":[10.362119,55.417207]},"geometry_name":"wkb_geometry","properties":{"boernehus":"Børnehuset Hyldemor","adresse":"Bogensevej 36","long":10.362119,"lat":55.417207}},{"type":"Feature","id":"boernehuse.81","geometry":{"type":"Point","coordinates":[10.37873,55.433391]},"geometry_name":"wkb_geometry","properties":{"boernehus":"Børnehuset Søhus","adresse":"Bispeengen 1","long":10.37873,"lat":55.433391}},{"type":"Feature","id":"boernehuse.82","geometry":{"type":"Point","coordinates":[10.385784,55.43435]},"geometry_name":"wkb_geometry","properties":{"boernehus":"Børnehuset Klostergården","adresse":"Bispeengen 123","long":10.385784,"lat":55.43435}},{"type":"Feature","id":"boernehuse.83","geometry":{"type":"Point","coordinates":[10.410907,55.438459]},"geometry_name":"wkb_geometry","properties":{"boernehus":"Børnehuset Lillelund","adresse":"Kirkegyden 23","long":10.410907,"lat":55.438459}},{"type":"Feature","id":"boernehuse.84","geometry":{"type":"Point","coordinates":[10.342949,55.403306]},"geometry_name":"wkb_geometry","properties":{"boernehus":"Børnehuset Haustruphave","adresse":"Beravænget 22","long":10.342949,"lat":55.403306}},{"type":"Feature","id":"boernehuse.85","geometry":{"type":"Point","coordinates":[10.349953,55.405203]},"geometry_name":"wkb_geometry","properties":{"boernehus":"Børnehuset Willeruplund","adresse":"Jeppe Aakjærs Allé 19","long":10.349953,"lat":55.405203}},{"type":"Feature","id":"boernehuse.86","geometry":{"type":"Point","coordinates":[10.36526,55.400621]},"geometry_name":"wkb_geometry","properties":{"boernehus":"Børnehuset  Åløkke","adresse":"Kong Georgs Vej 27","long":10.36526,"lat":55.400621}},{"type":"Feature","id":"boernehuse.87","geometry":{"type":"Point","coordinates":[10.333406,55.396161]},"geometry_name":"wkb_geometry","properties":{"boernehus":"Børnehuset Lille Højstrup","adresse":"Regner Lodbrogs Vej 80","long":10.333406,"lat":55.396161}},{"type":"Feature","id":"boernehuse.88","geometry":{"type":"Point","coordinates":[10.346581,55.390572]},"geometry_name":"wkb_geometry","properties":{"boernehus":"Børnehuset Bolbro","adresse":"Dybdevej 10","long":10.346581,"lat":55.390572}},{"type":"Feature","id":"boernehuse.89","geometry":{"type":"Point","coordinates":[10.352539,55.396281]},"geometry_name":"wkb_geometry","properties":{"boernehus":"Børnehuset Hjertegården","adresse":"Christmas Møllers V. 23","long":10.352539,"lat":55.396281}},{"type":"Feature","id":"boernehuse.90","geometry":{"type":"Point","coordinates":[10.352702,55.392984]},"geometry_name":"wkb_geometry","properties":{"boernehus":"Børnehuset Regnbuen","adresse":"Stadionvej 66B","long":10.352702,"lat":55.392984}},{"type":"Feature","id":"boernehuse.91","geometry":{"type":"Point","coordinates":[10.340782,55.405594]},"geometry_name":"wkb_geometry","properties":{"boernehus":"Børnehuset Honningkrukken","adresse":"Rismarksvej 105","long":10.340782,"lat":55.405594}},{"type":"Feature","id":"boernehuse.92","geometry":{"type":"Point","coordinates":[10.419333,55.385066]},"geometry_name":"wkb_geometry","properties":{"boernehus":"Børnehuset Ejerslykke","adresse":"Carl Blochs Vej 12","long":10.419333,"lat":55.385066}},{"type":"Feature","id":"boernehuse.93","geometry":{"type":"Point","coordinates":[10.373332,55.397469]},"geometry_name":"wkb_geometry","properties":{"boernehus":"Børnehuset Det Engelske Pakhus","adresse":"Fjordsgade 93","long":10.373332,"lat":55.397469}},{"type":"Feature","id":"boernehuse.94","geometry":{"type":"Point","coordinates":[10.372725,55.391689]},"geometry_name":"wkb_geometry","properties":{"boernehus":"Børnehuset Odense Vuggestue","adresse":"Falen 30","long":10.372725,"lat":55.391689}},{"type":"Feature","id":"boernehuse.95","geometry":{"type":"Point","coordinates":[10.390553,55.384657]},"geometry_name":"wkb_geometry","properties":{"boernehus":"Børnehuset Globehuset","adresse":"Helgavej 32","long":10.390553,"lat":55.384657}},{"type":"Feature","id":"boernehuse.96","geometry":{"type":"Point","coordinates":[10.420478,55.387151]},"geometry_name":"wkb_geometry","properties":{"boernehus":"Børnehuset Ejerslykke Vuggestue","adresse":"L.A. Rings Vej 18","long":10.420478,"lat":55.387151}},{"type":"Feature","id":"boernehuse.97","geometry":{"type":"Point","coordinates":[10.420326,55.385481]},"geometry_name":"wkb_geometry","properties":{"boernehus":"Børnehuset Carl","adresse":"Carl Blochs Vej 24","long":10.420326,"lat":55.385481}},{"type":"Feature","id":"boernehuse.98","geometry":{"type":"Point","coordinates":[10.399457,55.376004]},"geometry_name":"wkb_geometry","properties":{"boernehus":"Børnehuset Hinderuplund","adresse":"Skovsbovænget 7","long":10.399457,"lat":55.376004}},{"type":"Feature","id":"boernehuse.99","geometry":{"type":"Point","coordinates":[10.408845,55.385826]},"geometry_name":"wkb_geometry","properties":{"boernehus":"Børnehuset Kragsbjerglund","adresse":"Vissenbjergvej 5","long":10.408845,"lat":55.385826}},{"type":"Feature","id":"boernehuse.100","geometry":{"type":"Point","coordinates":[10.400945,55.383435]},"geometry_name":"wkb_geometry","properties":{"boernehus":"Børnehuset Chr. Sonnes Vej","adresse":"Chr. Sonnes Vej 23","long":10.400945,"lat":55.383435}},{"type":"Feature","id":"boernehuse.101","geometry":{"type":"Point","coordinates":[10.460071,55.377082]},"geometry_name":"wkb_geometry","properties":{"boernehus":"Børnehuset Regndråben","adresse":"Bredagerløkken 86","long":10.460071,"lat":55.377082}},{"type":"Feature","id":"boernehuse.102","geometry":{"type":"Point","coordinates":[10.505537,55.356158]},"geometry_name":"wkb_geometry","properties":{"boernehus":"Børnehuset Fraugde","adresse":"Jakobsstigen 1","long":10.505537,"lat":55.356158}},{"type":"Feature","id":"boernehuse.103","geometry":{"type":"Point","coordinates":[10.383691,55.378778]},"geometry_name":"wkb_geometry","properties":{"boernehus":"Børnehuset Engvej","adresse":"Engvej 29","long":10.383691,"lat":55.378778}},{"type":"Feature","id":"boernehuse.104","geometry":{"type":"Point","coordinates":[10.384751,55.397662]},"geometry_name":"wkb_geometry","properties":{"boernehus":"Børnehuset Jernbanegade","adresse":"Jernbanegade 20","long":10.384751,"lat":55.397662}},{"type":"Feature","id":"boernehuse.105","geometry":{"type":"Point","coordinates":[10.373962,55.391965]},"geometry_name":"wkb_geometry","properties":{"boernehus":"Børnehuset Odense","adresse":"Vandværksvej 15","long":10.373962,"lat":55.391965}},{"type":"Feature","id":"boernehuse.106","geometry":{"type":"Point","coordinates":[10.427556,55.390804]},"geometry_name":"wkb_geometry","properties":{"boernehus":"Børnehuset Korsløkkeparken","adresse":"Korsløkkehaven 87","long":10.427556,"lat":55.390804}},{"type":"Feature","id":"boernehuse.107","geometry":{"type":"Point","coordinates":[10.411858,55.39218]},"geometry_name":"wkb_geometry","properties":{"boernehus":"Børnehuset Skattekisten","adresse":"Østerbæksvej 150","long":10.411858,"lat":55.39218}},{"type":"Feature","id":"boernehuse.108","geometry":{"type":"Point","coordinates":[10.399884,55.37495]},"geometry_name":"wkb_geometry","properties":{"boernehus":"Børnehuset Skovsbo","adresse":"Niels Bohrs Alle 10","long":10.399884,"lat":55.37495}},{"type":"Feature","id":"boernehuse.109","geometry":{"type":"Point","coordinates":[10.412976,55.392803]},"geometry_name":"wkb_geometry","properties":{"boernehus":"Børnehuset Ønskeøen","adresse":"Schacksgade 41","long":10.412976,"lat":55.392803}},{"type":"Feature","id":"boernehuse.110","geometry":{"type":"Point","coordinates":[10.403505,55.373704]},"geometry_name":"wkb_geometry","properties":{"boernehus":"Børnehuset H.C. Ørsted","adresse":"Niels Bohrs Alle 23","long":10.403505,"lat":55.373704}},{"type":"Feature","id":"boernehuse.111","geometry":{"type":"Point","coordinates":[10.45566,55.370694]},"geometry_name":"wkb_geometry","properties":{"boernehus":"Børnehuset Tornbjerg","adresse":"Munkehatten 7","long":10.45566,"lat":55.370694}},{"type":"Feature","id":"boernehuse.112","geometry":{"type":"Point","coordinates":[10.408042,55.373327]},"geometry_name":"wkb_geometry","properties":{"boernehus":"Børnehuset Troldhøj","adresse":"Munkebjergvænget 1","long":10.408042,"lat":55.373327}},{"type":"Feature","id":"boernehuse.113","geometry":{"type":"Point","coordinates":[10.431919,55.386252]},"geometry_name":"wkb_geometry","properties":{"boernehus":"Børnehuset Ørbækparken","adresse":"Carlsen-Skiødts Vej 37","long":10.431919,"lat":55.386252}},{"type":"Feature","id":"boernehuse.114","geometry":{"type":"Point","coordinates":[10.446453,55.381222]},"geometry_name":"wkb_geometry","properties":{"boernehus":"Børnehuset Blangstedgård","adresse":"Stammen 2","long":10.446453,"lat":55.381222}},{"type":"Feature","id":"boernehuse.115","geometry":{"type":"Point","coordinates":[10.471011,55.369701]},"geometry_name":"wkb_geometry","properties":{"boernehus":"Børnehuset Svanen","adresse":"Væbnerhatten 196","long":10.471011,"lat":55.369701}},{"type":"Feature","id":"boernehuse.116","geometry":{"type":"Point","coordinates":[10.471829,55.374049]},"geometry_name":"wkb_geometry","properties":{"boernehus":"Børnehuset Viben","adresse":"Væbnerhatten 32","long":10.471829,"lat":55.374049}},{"type":"Feature","id":"boernehuse.117","geometry":{"type":"Point","coordinates":[10.465291,55.367749]},"geometry_name":"wkb_geometry","properties":{"boernehus":"Børnehuset Agerhønen","adresse":"Rørhatten 1","long":10.465291,"lat":55.367749}},{"type":"Feature","id":"boernehuse.118","geometry":{"type":"Point","coordinates":[10.446031,55.364955]},"geometry_name":"wkb_geometry","properties":{"boernehus":"Børnehuset Ællingen","adresse":"Hjulets Kvarter 305","long":10.446031,"lat":55.364955}},{"type":"Feature","id":"boernehuse.119","geometry":{"type":"Point","coordinates":[10.378446,55.398539]},"geometry_name":"wkb_geometry","properties":{"boernehus":"Børnehuset Toppen","adresse":"Vestre Stationsvej 4","long":10.378446,"lat":55.398539}},{"type":"Feature","id":"boernehuse.120","geometry":{"type":"Point","coordinates":[10.37374,55.392789]},"geometry_name":"wkb_geometry","properties":{"boernehus":"Børnehuset Tusindfryd","adresse":"Vandværksvej 14","long":10.37374,"lat":55.392789}},{"type":"Feature","id":"boernehuse.121","geometry":{"type":"Point","coordinates":[10.396823,55.391908]},"geometry_name":"wkb_geometry","properties":{"boernehus":"Børnehuset Vandtårnet","adresse":"Hjallesevej 3","long":10.396823,"lat":55.391908}},{"type":"Feature","id":"boernehuse.122","geometry":{"type":"Point","coordinates":[10.372892,55.384095]},"geometry_name":"wkb_geometry","properties":{"boernehus":"Børnehuset Ådalen","adresse":"Sdr. Boulevard 180","long":10.372892,"lat":55.384095}},{"type":"Feature","id":"boernehuse.123","geometry":{"type":"Point","coordinates":[10.402999,55.388335]},"geometry_name":"wkb_geometry","properties":{"boernehus":"Børnehuset Børneborgen","adresse":"Bjerregaardsvej 9","long":10.402999,"lat":55.388335}},{"type":"Feature","id":"boernehuse.124","geometry":{"type":"Point","coordinates":[10.393184,55.393851]},"geometry_name":"wkb_geometry","properties":{"boernehus":"Børnehuset Albanigade","adresse":"Albanigade 21C","long":10.393184,"lat":55.393851}},{"type":"Feature","id":"boernehuse.125","geometry":{"type":"Point","coordinates":[10.392176,55.394455]},"geometry_name":"wkb_geometry","properties":{"boernehus":"Børnehuset Dronningens Asyl","adresse":"Kronprinsensgade 3","long":10.392176,"lat":55.394455}},{"type":"Feature","id":"boernehuse.126","geometry":{"type":"Point","coordinates":[10.3892,55.382159]},"geometry_name":"wkb_geometry","properties":{"boernehus":"Børnehuset Hunderup","adresse":"Hunderupvej 103","long":10.3892,"lat":55.382159}},{"type":"Feature","id":"boernehuse.127","geometry":{"type":"Point","coordinates":[10.369362,55.385156]},"geometry_name":"wkb_geometry","properties":{"boernehus":"Børnehuset Molevitten","adresse":"Sdr. Boulevard 29","long":10.369362,"lat":55.385156}},{"type":"Feature","id":"boernehuse.128","geometry":{"type":"Point","coordinates":[10.403949,55.389068]},"geometry_name":"wkb_geometry","properties":{"boernehus":"Børnehuset Strikkegården","adresse":"Bjerregaardsvej 16","long":10.403949,"lat":55.389068}},{"type":"Feature","id":"boernehuse.129","geometry":{"type":"Point","coordinates":[10.405364,55.394971]},"geometry_name":"wkb_geometry","properties":{"boernehus":"Børnehuset Sct. Georgshjemmet","adresse":"Palnatokesvej 47","long":10.405364,"lat":55.394971}},{"type":"Feature","id":"boernehuse.130","geometry":{"type":"Point","coordinates":[10.421443,55.358678]},"geometry_name":"wkb_geometry","properties":{"boernehus":"Børnehuset Hestehaven","adresse":"Hestehaven 104A","long":10.421443,"lat":55.358678}},{"type":"Feature","id":"boernehuse.131","geometry":{"type":"Point","coordinates":[10.43438,55.405419]},"geometry_name":"wkb_geometry","properties":{"boernehus":"Børnehuset Verdenshuset","adresse":"Vollsmose Allè 30","long":10.43438,"lat":55.405419}},{"type":"Feature","id":"boernehuse.132","geometry":{"type":"Point","coordinates":[10.456286,55.426996]},"geometry_name":"wkb_geometry","properties":{"boernehus":"Børnehuset Fjordager","adresse":"Bullerupvej 67","long":10.456286,"lat":55.426996}},{"type":"Feature","id":"boernehuse.133","geometry":{"type":"Point","coordinates":[10.42656,55.404653]},"geometry_name":"wkb_geometry","properties":{"boernehus":"Børnehuset Granparken","adresse":"Granparken 56A","long":10.42656,"lat":55.404653}},{"type":"Feature","id":"boernehuse.134","geometry":{"type":"Point","coordinates":[10.375861,55.454202]},"geometry_name":"wkb_geometry","properties":{"boernehus":"Børnehuset Lumby","adresse":"H.C. Lumbyes Vej 9A","long":10.375861,"lat":55.454202}},{"type":"Feature","id":"boernehuse.135","geometry":{"type":"Point","coordinates":[10.334833,55.431083]},"geometry_name":"wkb_geometry","properties":{"boernehus":"Børnehuset Stærekassen","adresse":"Ærtebjerggårdvej 3","long":10.334833,"lat":55.431083}},{"type":"Feature","id":"boernehuse.136","geometry":{"type":"Point","coordinates":[10.353032,55.395959]},"geometry_name":"wkb_geometry","properties":{"boernehus":"Børnehuset KFUM & K","adresse":"Christmas Møllers V. 21","long":10.353032,"lat":55.395959}},{"type":"Feature","id":"boernehuse.137","geometry":{"type":"Point","coordinates":[10.335701,55.417007]},"geometry_name":"wkb_geometry","properties":{"boernehus":"Børnehuset Hvepsereden","adresse":"Fuglebakken 26","long":10.335701,"lat":55.417007}},{"type":"Feature","id":"boernehuse.138","geometry":{"type":"Point","coordinates":[10.449388,55.364251]},"geometry_name":"wkb_geometry","properties":{"boernehus":"Børnehuset Hjulet","adresse":"Hjulets Kvarter 199","long":10.449388,"lat":55.364251}},{"type":"Feature","id":"boernehuse.139","geometry":{"type":"Point","coordinates":[10.451465,55.36388]},"geometry_name":"wkb_geometry","properties":{"boernehus":"Børnehuset Holluf Pile","adresse":"Klokkens Kvarter 19","long":10.451465,"lat":55.36388}},{"type":"Feature","id":"boernehuse.140","geometry":{"type":"Point","coordinates":[10.420407,55.358914]},"geometry_name":"wkb_geometry","properties":{"boernehus":"Børnehuset Elverhøjen (inst. Kragsbjerg)","adresse":"Hestehaven 104B","long":10.420407,"lat":55.358914}},{"type":"Feature","id":"boernehuse.141","geometry":{"type":"Point","coordinates":[10.319825,55.341981]},"geometry_name":"wkb_geometry","properties":{"boernehus":"Børnehuset Luna","adresse":"Sædekildegårdsvej 6","long":10.319825,"lat":55.341981}},{"type":"Feature","id":"boernehuse.142","geometry":{"type":"Point","coordinates":[10.366601,55.398734]},"geometry_name":"wkb_geometry","properties":{"boernehus":"Børnehuset Solkernen","adresse":"Rugårdsvej 60","long":10.366601,"lat":55.398734}},{"type":"Feature","id":"boernehuse.143","geometry":{"type":"Point","coordinates":[10.359401,55.402381]},"geometry_name":"wkb_geometry","properties":{"boernehus":"Børnehuset Skovbrynet Børnehave","adresse":"Mogensensvej 26","long":10.359401,"lat":55.402381}},{"type":"Feature","id":"boernehuse.144","geometry":{"type":"Point","coordinates":[10.381154,55.361639]},"geometry_name":"wkb_geometry","properties":{"boernehus":"Børnehuset Dalum Private","adresse":"Zachariasvænget 14","long":10.381154,"lat":55.361639}},{"type":"Feature","id":"boernehuse.145","geometry":{"type":"Point","coordinates":[10.415526,55.34051]},"geometry_name":"wkb_geometry","properties":{"boernehus":"Børnehuset Vuggestue og børnehaven ved Rudolf Steiner skolen","adresse":"Lindevedvej 62","long":10.415526,"lat":55.34051}},{"type":"Feature","id":"boernehuse.146","geometry":{"type":"Point","coordinates":[10.339327,55.368779]},"geometry_name":"wkb_geometry","properties":{"boernehus":"Børnehuset Dragen","adresse":"Dragebakken 509","long":10.339327,"lat":55.368779}},{"type":"Feature","id":"boernehuse.147","geometry":{"type":"Point","coordinates":[10.266461,55.377542]},"geometry_name":"wkb_geometry","properties":{"boernehus":"Børnehuset Ravnebjerg","adresse":"Ravnebjerggyden 78B","long":10.266461,"lat":55.377542}},{"type":"Feature","id":"boernehuse.148","geometry":{"type":"Point","coordinates":[10.3444,55.336301]},"geometry_name":"wkb_geometry","properties":{"boernehus":"Børnehuset Skt. Klemens","adresse":"Skt. Klemens Vej 99","long":10.3444,"lat":55.336301}},{"type":"Feature","id":"boernehuse.149","geometry":{"type":"Point","coordinates":[10.389215,55.38258]},"geometry_name":"wkb_geometry","properties":{"boernehus":"Børnehuset Galaksen","adresse":"Hunderupvej 103","long":10.389215,"lat":55.38258}},{"type":"Feature","id":"boernehuse.150","geometry":{"type":"Point","coordinates":[10.407857,55.391681]},"geometry_name":"wkb_geometry","properties":{"boernehus":"Børnehuset Trekanten","adresse":"Rødegårdsvej 89","long":10.407857,"lat":55.391681}},{"type":"Feature","id":"boernehuse.151","geometry":{"type":"Point","coordinates":[10.444608,55.381774]},"geometry_name":"wkb_geometry","properties":{"boernehus":"Børnehuset Kastanjen","adresse":"Blanstedgårds Allé 108","long":10.444608,"lat":55.381774}},{"type":"Feature","id":"boernehuse.152","geometry":{"type":"Point","coordinates":[10.39317,55.394605]},"geometry_name":"wkb_geometry","properties":{"boernehus":"Børnehuset Musikalsk Børnehave","adresse":"Albanigade 9","long":10.39317,"lat":55.394605}},{"type":"Feature","id":"boernehuse.153","geometry":{"type":"Point","coordinates":[10.37091,55.428745]},"geometry_name":"wkb_geometry","properties":{"boernehus":"Børnehuset Æblet","adresse":"Sønderskovvænget 70","long":10.37091,"lat":55.428745}},{"type":"Feature","id":"boernehuse.154","geometry":{"type":"Point","coordinates":[10.406519,55.417949]},"geometry_name":"wkb_geometry","properties":{"boernehus":"Børnehuset Marienlund","adresse":"Sandhusvej 12","long":10.406519,"lat":55.417949}},{"type":"Feature","id":"boernehuse.155","geometry":{"type":"Point","coordinates":[10.410914,55.41465]},"geometry_name":"wkb_geometry","properties":{"boernehus":"Børnehuset DK’s legestue","adresse":"Bellisvej 43","long":10.410914,"lat":55.41465}},{"type":"Feature","id":"boernehuse.156","geometry":{"type":"Point","coordinates":[10.477914,55.427905]},"geometry_name":"wkb_geometry","properties":{"boernehus":"Børnehuset Bullerup Private","adresse":"Mølledammen 12","long":10.477914,"lat":55.427905}},{"type":"Feature","id":"boernehuse.157","geometry":{"type":"Point","coordinates":[10.398184,55.438252]},"geometry_name":"wkb_geometry","properties":{"boernehus":"Børnehuset Friskolens Børnehave","adresse":"Hedelundvej 2","long":10.398184,"lat":55.438252}},{"type":"Feature","id":"boernehuse.158","geometry":{"type":"Point","coordinates":[10.418435,55.395778]},"geometry_name":"wkb_geometry","properties":{"boernehus":"Børnehuset Den Blå Planet","adresse":"Ejby Kirkevej 15","long":10.418435,"lat":55.395778}}],"crs":{"type":"EPSG","properties":{"code":"4326"}},"bbox":[10.261204,55.316049,10.505537,55.454202]}