{"type":"FeatureCollection","features":[{"type":"Feature","id":"legepladser.1","geometry":{"type":"Point","coordinates":[10.404056,55.395344]},"geometry_name":"wkb_geometry","properties":{"omraadenavn":"Albani-engen","adresse":"Georgsgade 63","postnr":5000,"postdistrikt":"Odense C","long":10.404056,"lat":55.395344}},{"type":"Feature","id":"legepladser.2","geometry":{"type":"Point","coordinates":[10.399757,55.397324]},"geometry_name":"wkb_geometry","properties":{"omraadenavn":"Muus's have / Christiansgade","adresse":"Christiansgade 30","postnr":5000,"postdistrikt":"Odense C","long":10.399757,"lat":55.397324}},{"type":"Feature","id":"legepladser.3","geometry":{"type":"Point","coordinates":[10.394319,55.391717]},"geometry_name":"wkb_geometry","properties":{"omraadenavn":"Fredensgade / Alexandrasgade","adresse":"Fredensgade 27","postnr":5000,"postdistrikt":"Odense C","long":10.394319,"lat":55.391717}},{"type":"Feature","id":"legepladser.4","geometry":{"type":"Point","coordinates":[10.389573,55.396431]},"geometry_name":"wkb_geometry","properties":{"omraadenavn":"Vilhelm Werners Plads","adresse":"Albani Torv 11","postnr":5000,"postdistrikt":"Odense C","long":10.389573,"lat":55.396431}},{"type":"Feature","id":"legepladser.5","geometry":{"type":"Point","coordinates":[10.383028,55.39059]},"geometry_name":"wkb_geometry","properties":{"omraadenavn":"Munke Mose","adresse":"Munke Mose Allé 6","postnr":5000,"postdistrikt":"Odense C","long":10.383028,"lat":55.39059}},{"type":"Feature","id":"legepladser.6","geometry":{"type":"Point","coordinates":[10.3944,55.3883]},"geometry_name":"wkb_geometry","properties":{"omraadenavn":"Godthåbsgade","adresse":"Godthåbsgade 40","postnr":5000,"postdistrikt":"Odense C","long":10.3944,"lat":55.3883}},{"type":"Feature","id":"legepladser.7","geometry":{"type":"Point","coordinates":[10.376307,55.389773]},"geometry_name":"wkb_geometry","properties":{"omraadenavn":"Ansgar Anlæg","adresse":"Kirkegårds Allé 35","postnr":5000,"postdistrikt":"Odense C","long":10.376307,"lat":55.389773}},{"type":"Feature","id":"legepladser.8","geometry":{"type":"Point","coordinates":[10.37142,55.394924]},"geometry_name":"wkb_geometry","properties":{"omraadenavn":"Dronningensgade / St.Glasvej","adresse":"Dronningensgade 94","postnr":5000,"postdistrikt":"Odense C","long":10.37142,"lat":55.394924}},{"type":"Feature","id":"legepladser.9","geometry":{"type":"Point","coordinates":[10.3726,55.3973]},"geometry_name":"wkb_geometry","properties":{"omraadenavn":"Glasværksparken","adresse":"Vestre Stationsvej 15-17","postnr":5000,"postdistrikt":"Odense C","long":10.3726,"lat":55.3973}},{"type":"Feature","id":"legepladser.10","geometry":{"type":"Point","coordinates":[10.3747,55.395309]},"geometry_name":"wkb_geometry","properties":{"omraadenavn":"Thorsgade","adresse":"Thorsgade 61-67","postnr":5000,"postdistrikt":"Odense C","long":10.3747,"lat":55.395309}},{"type":"Feature","id":"legepladser.11","geometry":{"type":"Point","coordinates":[10.3936,55.4036]},"geometry_name":"wkb_geometry","properties":{"omraadenavn":"Juelsgade - Anlæg","adresse":"Juelsgade 4B","postnr":5000,"postdistrikt":"Odense C","long":10.3936,"lat":55.4036}},{"type":"Feature","id":"legepladser.12","geometry":{"type":"Point","coordinates":[10.390558,55.407371]},"geometry_name":"wkb_geometry","properties":{"omraadenavn":"Løveparken - Nørrevænget","adresse":"Nørrevænget 12","postnr":5000,"postdistrikt":"Odense C","long":10.390558,"lat":55.407371}},{"type":"Feature","id":"legepladser.13","geometry":{"type":"Point","coordinates":[10.4059,55.4076]},"geometry_name":"wkb_geometry","properties":{"omraadenavn":"Hanneberg - Kvarterpark","adresse":"Kochsgade 21","postnr":5000,"postdistrikt":"Odense C","long":10.4059,"lat":55.4076}},{"type":"Feature","id":"legepladser.14","geometry":{"type":"Point","coordinates":[10.405116,55.41044]},"geometry_name":"wkb_geometry","properties":{"omraadenavn":"Svanedammen - Kvarterpark","adresse":"Tranevej 44","postnr":5000,"postdistrikt":"Odense C","long":10.405116,"lat":55.41044}},{"type":"Feature","id":"legepladser.15","geometry":{"type":"Point","coordinates":[10.396666,55.412514]},"geometry_name":"wkb_geometry","properties":{"omraadenavn":"Fredens anlæg","adresse":"Skibhusvej 167","postnr":5000,"postdistrikt":"Odense C","long":10.396666,"lat":55.412514}},{"type":"Feature","id":"legepladser.16","geometry":{"type":"Point","coordinates":[10.418453,55.41058]},"geometry_name":"wkb_geometry","properties":{"omraadenavn":"Anlæg ved Døckerslundsvej","adresse":"Døckerslundsvej 161","postnr":5000,"postdistrikt":"Odense C","long":10.418453,"lat":55.41058}},{"type":"Feature","id":"legepladser.17","geometry":{"type":"Point","coordinates":[10.417914,55.413273]},"geometry_name":"wkb_geometry","properties":{"omraadenavn":"Risingeparken","adresse":"Arkonavej 10C","postnr":5000,"postdistrikt":"Odense C","long":10.417914,"lat":55.413273}},{"type":"Feature","id":"legepladser.18","geometry":{"type":"Point","coordinates":[10.392851,55.417118]},"geometry_name":"wkb_geometry","properties":{"omraadenavn":"Thurøgade - Anlæg","adresse":"Windelsvej 46","postnr":5000,"postdistrikt":"Odense C","long":10.392851,"lat":55.417118}},{"type":"Feature","id":"legepladser.19","geometry":{"type":"Point","coordinates":[10.428401,55.449885]},"geometry_name":"wkb_geometry","properties":{"omraadenavn":"Legebasen Stige Ø","adresse":"Østre Kanalvej 99","postnr":5000,"postdistrikt":"Odense C","long":10.428401,"lat":55.449885}},{"type":"Feature","id":"legepladser.20","geometry":{"type":"Point","coordinates":[10.410304,55.38815]},"geometry_name":"wkb_geometry","properties":{"omraadenavn":"Munkedammen","adresse":"Dyrhøjvej 29","postnr":5000,"postdistrikt":"Odense C","long":10.410304,"lat":55.38815}},{"type":"Feature","id":"legepladser.21","geometry":{"type":"Point","coordinates":[10.414172,55.391051]},"geometry_name":"wkb_geometry","properties":{"omraadenavn":"Munkedammen","adresse":"Bredalsvej 85","postnr":5000,"postdistrikt":"Odense C","long":10.414172,"lat":55.391051}},{"type":"Feature","id":"legepladser.22","geometry":{"type":"Point","coordinates":[10.409872,55.397869]},"geometry_name":"wkb_geometry","properties":{"omraadenavn":"Skt. Jørgens Parken","adresse":"Jomsborgvej 19","postnr":5000,"postdistrikt":"Odense C","long":10.409872,"lat":55.397869}},{"type":"Feature","id":"legepladser.23","geometry":{"type":"Point","coordinates":[10.34271,55.388527]},"geometry_name":"wkb_geometry","properties":{"omraadenavn":"Roesskovparken","adresse":"Roesskovsvej 105","postnr":5200,"postdistrikt":"Odense V","long":10.34271,"lat":55.388527}},{"type":"Feature","id":"legepladser.24","geometry":{"type":"Point","coordinates":[10.338049,55.395003]},"geometry_name":"wkb_geometry","properties":{"omraadenavn":"Højemarksvej","adresse":"Højemarksvej 11","postnr":5200,"postdistrikt":"Odense V","long":10.338049,"lat":55.395003}},{"type":"Feature","id":"legepladser.25","geometry":{"type":"Point","coordinates":[10.266222,55.405529]},"geometry_name":"wkb_geometry","properties":{"omraadenavn":"Ejlstrup Kvarterpark","adresse":"Egevej 17-23","postnr":5200,"postdistrikt":"Odense V","long":10.266222,"lat":55.405529}},{"type":"Feature","id":"legepladser.26","geometry":{"type":"Point","coordinates":[10.3483,55.3913]},"geometry_name":"wkb_geometry","properties":{"omraadenavn":"Kancellivej","adresse":"Kancellivej 37","postnr":5200,"postdistrikt":"Odense V","long":10.3483,"lat":55.3913}},{"type":"Feature","id":"legepladser.27","geometry":{"type":"Point","coordinates":[10.3544,55.3932]},"geometry_name":"wkb_geometry","properties":{"omraadenavn":"Bolbro kirkeplads","adresse":"Roesskovsvej 9","postnr":5200,"postdistrikt":"Odense V","long":10.3544,"lat":55.3932}},{"type":"Feature","id":"legepladser.28","geometry":{"type":"Point","coordinates":[10.342034,55.396235]},"geometry_name":"wkb_geometry","properties":{"omraadenavn":"Sigfredsvej","adresse":"Sigfredsvej 11","postnr":5200,"postdistrikt":"Odense V","long":10.342034,"lat":55.396235}},{"type":"Feature","id":"legepladser.29","geometry":{"type":"Point","coordinates":[10.315902,55.421065]},"geometry_name":"wkb_geometry","properties":{"omraadenavn":"Villestoftehegnet anlæg","adresse":"Villestoftehegnet 126","postnr":5210,"postdistrikt":"Odense NV","long":10.315902,"lat":55.421065}},{"type":"Feature","id":"legepladser.30","geometry":{"type":"Point","coordinates":[10.31817,55.424373]},"geometry_name":"wkb_geometry","properties":{"omraadenavn":"Villestoftemarken anlæg","adresse":"Villestoftemarken 12-14","postnr":5210,"postdistrikt":"Odense NV","long":10.31817,"lat":55.424373}},{"type":"Feature","id":"legepladser.31","geometry":{"type":"Point","coordinates":[10.324965,55.409689]},"geometry_name":"wkb_geometry","properties":{"omraadenavn":"Heklavej anlæg","adresse":"Heklavej 24-28","postnr":5210,"postdistrikt":"Odense NV","long":10.324965,"lat":55.409689}},{"type":"Feature","id":"legepladser.32","geometry":{"type":"Point","coordinates":[10.330852,55.408866]},"geometry_name":"wkb_geometry","properties":{"omraadenavn":"Saxovej anlæg","adresse":"Saxovej 123","postnr":5210,"postdistrikt":"Odense NV","long":10.330852,"lat":55.408866}},{"type":"Feature","id":"legepladser.33","geometry":{"type":"Point","coordinates":[10.335499,55.416662]},"geometry_name":"wkb_geometry","properties":{"omraadenavn":"Ørnevej legeplads","adresse":"Ørnevej 170","postnr":5210,"postdistrikt":"Odense NV","long":10.335499,"lat":55.416662}},{"type":"Feature","id":"legepladser.34","geometry":{"type":"Point","coordinates":[10.347307,55.404116]},"geometry_name":"wkb_geometry","properties":{"omraadenavn":"Willeruplundparken","adresse":"Eddavej 30-32","postnr":5210,"postdistrikt":"Odense NV","long":10.347307,"lat":55.404116}},{"type":"Feature","id":"legepladser.35","geometry":{"type":"Point","coordinates":[10.274975,55.415099]},"geometry_name":"wkb_geometry","properties":{"omraadenavn":"Åbakkevej kvarterpark","adresse":"Åbakkevej 27-29","postnr":5210,"postdistrikt":"Odense NV","long":10.274975,"lat":55.415099}},{"type":"Feature","id":"legepladser.36","geometry":{"type":"Point","coordinates":[10.266934,55.416598]},"geometry_name":"wkb_geometry","properties":{"omraadenavn":"Berberisvænget anlæg","adresse":"Berberisvænget 15-18","postnr":5210,"postdistrikt":"Odense NV","long":10.266934,"lat":55.416598}},{"type":"Feature","id":"legepladser.37","geometry":{"type":"Point","coordinates":[10.357689,55.406732]},"geometry_name":"wkb_geometry","properties":{"omraadenavn":"Åløkke Skov","adresse":"Jernbanevej 33","postnr":5210,"postdistrikt":"Odense NV","long":10.357689,"lat":55.406732}},{"type":"Feature","id":"legepladser.38","geometry":{"type":"Point","coordinates":[10.304572,55.413208]},"geometry_name":"wkb_geometry","properties":{"omraadenavn":"Søndermarkens anlæg","adresse":"Søndermarken 23-27","postnr":5210,"postdistrikt":"Odense NV","long":10.304572,"lat":55.413208}},{"type":"Feature","id":"legepladser.39","geometry":{"type":"Point","coordinates":[10.472339,55.36317]},"geometry_name":"wkb_geometry","properties":{"omraadenavn":"Nørrebjerg Runddel","adresse":"Nørrebjerg Runddel 43N","postnr":5220,"postdistrikt":"Odense SØ","long":10.472339,"lat":55.36317}},{"type":"Feature","id":"legepladser.40","geometry":{"type":"Point","coordinates":[10.467408,55.370958]},"geometry_name":"wkb_geometry","properties":{"omraadenavn":"Store Tornbjerg","adresse":"Læderhatten 31","postnr":5220,"postdistrikt":"Odense SØ","long":10.467408,"lat":55.370958}},{"type":"Feature","id":"legepladser.41","geometry":{"type":"Point","coordinates":[10.4393,55.3543]},"geometry_name":"wkb_geometry","properties":{"omraadenavn":"Hollufgård","adresse":"Hestehaven 201T","postnr":5220,"postdistrikt":"Odense SØ","long":10.4393,"lat":55.3543}},{"type":"Feature","id":"legepladser.42","geometry":{"type":"Point","coordinates":[10.504592,55.373899]},"geometry_name":"wkb_geometry","properties":{"omraadenavn":"Fraugde-Kærby-Vej","adresse":"Fraugde-Kærby-Vej 203B","postnr":5220,"postdistrikt":"Odense SØ","long":10.504592,"lat":55.373899}},{"type":"Feature","id":"legepladser.43","geometry":{"type":"Point","coordinates":[10.425424,55.395133]},"geometry_name":"wkb_geometry","properties":{"omraadenavn":"Vildrosevej","adresse":"Vildrosevej 26","postnr":5220,"postdistrikt":"Odense SØ","long":10.425424,"lat":55.395133}},{"type":"Feature","id":"legepladser.44","geometry":{"type":"Point","coordinates":[10.4543,55.3854]},"geometry_name":"wkb_geometry","properties":{"omraadenavn":"Lindved Ådal","adresse":"Herluf Trolles Vej 257","postnr":5220,"postdistrikt":"Odense SØ","long":10.4543,"lat":55.3854}},{"type":"Feature","id":"legepladser.45","geometry":{"type":"Point","coordinates":[10.545222,55.341161]},"geometry_name":"wkb_geometry","properties":{"omraadenavn":"Davinde Idrætsplads","adresse":"Sanderumgårdvej 15","postnr":5220,"postdistrikt":"Odense SØ","long":10.545222,"lat":55.341161}},{"type":"Feature","id":"legepladser.46","geometry":{"type":"Point","coordinates":[10.506656,55.3568]},"geometry_name":"wkb_geometry","properties":{"omraadenavn":"Østparken Kvarterpark","adresse":"Honningurten 18","postnr":5220,"postdistrikt":"Odense SØ","long":10.506656,"lat":55.3568}},{"type":"Feature","id":"legepladser.47","geometry":{"type":"Point","coordinates":[10.498072,55.354873]},"geometry_name":"wkb_geometry","properties":{"omraadenavn":"Østparken - Anlæg","adresse":"Østparken 56","postnr":5220,"postdistrikt":"Odense SØ","long":10.498072,"lat":55.354873}},{"type":"Feature","id":"legepladser.48","geometry":{"type":"Point","coordinates":[10.4012,55.3842]},"geometry_name":"wkb_geometry","properties":{"omraadenavn":"Munkedammen","adresse":"Rosenørnsvej 30","postnr":5230,"postdistrikt":"Odense M","long":10.4012,"lat":55.3842}},{"type":"Feature","id":"legepladser.49","geometry":{"type":"Point","coordinates":[10.418305,55.387478]},"geometry_name":"wkb_geometry","properties":{"omraadenavn":"L.A. Ringsvej / Købkesvej","adresse":"Købkesvej 58","postnr":5230,"postdistrikt":"Odense M","long":10.418305,"lat":55.387478}},{"type":"Feature","id":"legepladser.50","geometry":{"type":"Point","coordinates":[10.399305,55.382247]},"geometry_name":"wkb_geometry","properties":{"omraadenavn":"Oppermannsvej","adresse":"Oppermannsvej 14","postnr":5230,"postdistrikt":"Odense M","long":10.399305,"lat":55.382247}},{"type":"Feature","id":"legepladser.51","geometry":{"type":"Point","coordinates":[10.390378,55.375271]},"geometry_name":"wkb_geometry","properties":{"omraadenavn":"Blichersvej Lokalpark","adresse":"Blichersvej 83","postnr":5230,"postdistrikt":"Odense M","long":10.390378,"lat":55.375271}},{"type":"Feature","id":"legepladser.52","geometry":{"type":"Point","coordinates":[10.40064,55.377724]},"geometry_name":"wkb_geometry","properties":{"omraadenavn":"Hinderuplundparken","adresse":"Erholmvænget 38","postnr":5230,"postdistrikt":"Odense M","long":10.40064,"lat":55.377724}},{"type":"Feature","id":"legepladser.53","geometry":{"type":"Point","coordinates":[10.4339,55.413]},"geometry_name":"wkb_geometry","properties":{"omraadenavn":"Idrætslegeplads","adresse":"Kertemindevej 165Z","postnr":5240,"postdistrikt":"Odense NØ","long":10.4339,"lat":55.413}},{"type":"Feature","id":"legepladser.54","geometry":{"type":"Point","coordinates":[10.444584,55.398846]},"geometry_name":"wkb_geometry","properties":{"omraadenavn":"Legeplads ved Odense Å","adresse":"Åsumvej 419","postnr":5240,"postdistrikt":"Odense NØ","long":10.444584,"lat":55.398846}},{"type":"Feature","id":"legepladser.55","geometry":{"type":"Point","coordinates":[10.4381,55.4269]},"geometry_name":"wkb_geometry","properties":{"omraadenavn":"Hyldegårdsparken","adresse":"Hyldegårdsvej 43","postnr":5240,"postdistrikt":"Odense NØ","long":10.4381,"lat":55.4269}},{"type":"Feature","id":"legepladser.56","geometry":{"type":"Point","coordinates":[10.450825,55.425632]},"geometry_name":"wkb_geometry","properties":{"omraadenavn":"Øderløkken - Anlæg","adresse":"Bjergskiftet 13","postnr":5240,"postdistrikt":"Odense NØ","long":10.450825,"lat":55.425632}},{"type":"Feature","id":"legepladser.57","geometry":{"type":"Point","coordinates":[10.4534,55.4411]},"geometry_name":"wkb_geometry","properties":{"omraadenavn":"Kragenæsvej - Legeplads","adresse":"Kragenæsvej 44","postnr":5240,"postdistrikt":"Odense NØ","long":10.4534,"lat":55.4411}},{"type":"Feature","id":"legepladser.58","geometry":{"type":"Point","coordinates":[10.342534,55.356567]},"geometry_name":"wkb_geometry","properties":{"omraadenavn":"Dyrupgårds Allé / Thujavej","adresse":"Dyrupgårds Allé 85","postnr":5250,"postdistrikt":"Odense SV","long":10.342534,"lat":55.356567}},{"type":"Feature","id":"legepladser.59","geometry":{"type":"Point","coordinates":[10.350009,55.353168]},"geometry_name":"wkb_geometry","properties":{"omraadenavn":"Dyrupsgårds Allé","adresse":"Dyrupgårds Allé 110","postnr":5250,"postdistrikt":"Odense SV","long":10.350009,"lat":55.353168}},{"type":"Feature","id":"legepladser.60","geometry":{"type":"Point","coordinates":[10.330924,55.36552]},"geometry_name":"wkb_geometry","properties":{"omraadenavn":"Vestre Boulevard anlæg","adresse":"Holkebjergvej 24","postnr":5250,"postdistrikt":"Odense SV","long":10.330924,"lat":55.36552}},{"type":"Feature","id":"legepladser.61","geometry":{"type":"Point","coordinates":[10.332047,55.364138]},"geometry_name":"wkb_geometry","properties":{"omraadenavn":"Snerlevænget","adresse":"Snerlevænget 5","postnr":5250,"postdistrikt":"Odense SV","long":10.332047,"lat":55.364138}},{"type":"Feature","id":"legepladser.62","geometry":{"type":"Point","coordinates":[10.342673,55.367013]},"geometry_name":"wkb_geometry","properties":{"omraadenavn":"Mågebakken anlæg","adresse":"Mågebakken 30","postnr":5250,"postdistrikt":"Odense SV","long":10.342673,"lat":55.367013}},{"type":"Feature","id":"legepladser.63","geometry":{"type":"Point","coordinates":[10.353133,55.370424]},"geometry_name":"wkb_geometry","properties":{"omraadenavn":"Abels Allé","adresse":"Abels Allé 35","postnr":5250,"postdistrikt":"Odense SV","long":10.353133,"lat":55.370424}},{"type":"Feature","id":"legepladser.64","geometry":{"type":"Point","coordinates":[10.3612,55.372224]},"geometry_name":"wkb_geometry","properties":{"omraadenavn":"Thyras Allé","adresse":"Thyras Allé 1","postnr":5250,"postdistrikt":"Odense SV","long":10.3612,"lat":55.372224}},{"type":"Feature","id":"legepladser.65","geometry":{"type":"Point","coordinates":[10.368237,55.36542]},"geometry_name":"wkb_geometry","properties":{"omraadenavn":"Birkedals- / Fredens Allé","adresse":"Fredens Allé 30","postnr":5250,"postdistrikt":"Odense SV","long":10.368237,"lat":55.36542}},{"type":"Feature","id":"legepladser.66","geometry":{"type":"Point","coordinates":[10.359712,55.366086]},"geometry_name":"wkb_geometry","properties":{"omraadenavn":"Lokalpark Ellekærsvej","adresse":"Ellekærsvej 20","postnr":5250,"postdistrikt":"Odense SV","long":10.359712,"lat":55.366086}},{"type":"Feature","id":"legepladser.67","geometry":{"type":"Point","coordinates":[10.378628,55.370424]},"geometry_name":"wkb_geometry","properties":{"omraadenavn":"Fruens Bøge","adresse":"Skovalleen","postnr":5250,"postdistrikt":"Odense SV","long":10.378628,"lat":55.370424}},{"type":"Feature","id":"legepladser.68","geometry":{"type":"Point","coordinates":[10.304313,55.341574]},"geometry_name":"wkb_geometry","properties":{"omraadenavn":"Flintagerløkken","adresse":"Flintagerløkken 40","postnr":5250,"postdistrikt":"Odense SV","long":10.304313,"lat":55.341574}},{"type":"Feature","id":"legepladser.69","geometry":{"type":"Point","coordinates":[10.31669,55.337814]},"geometry_name":"wkb_geometry","properties":{"omraadenavn":"Flittig Lise Vej","adresse":"Flittig Lise Vej 35","postnr":5250,"postdistrikt":"Odense SV","long":10.31669,"lat":55.337814}},{"type":"Feature","id":"legepladser.70","geometry":{"type":"Point","coordinates":[10.279106,55.362572]},"geometry_name":"wkb_geometry","properties":{"omraadenavn":"Planteskolevænget","adresse":"Planteskolevænget 16","postnr":5250,"postdistrikt":"Odense SV","long":10.279106,"lat":55.362572}},{"type":"Feature","id":"legepladser.71","geometry":{"type":"Point","coordinates":[10.435005,55.325923]},"geometry_name":"wkb_geometry","properties":{"omraadenavn":"Musikrum","adresse":"Højbyvej 5","postnr":5260,"postdistrikt":"Odense S","long":10.435005,"lat":55.325923}},{"type":"Feature","id":"legepladser.72","geometry":{"type":"Point","coordinates":[10.389217,55.359782]},"geometry_name":"wkb_geometry","properties":{"omraadenavn":"Jacob Hansens Vej","adresse":"Jacob Hansens Vej 61","postnr":5260,"postdistrikt":"Odense S","long":10.389217,"lat":55.359782}},{"type":"Feature","id":"legepladser.73","geometry":{"type":"Point","coordinates":[10.385368,55.354292]},"geometry_name":"wkb_geometry","properties":{"omraadenavn":"Hans J. Nielsens Vej","adresse":"Hans J. Nielsens Vej 14","postnr":5260,"postdistrikt":"Odense S","long":10.385368,"lat":55.354292}},{"type":"Feature","id":"legepladser.74","geometry":{"type":"Point","coordinates":[10.389398,55.354597]},"geometry_name":"wkb_geometry","properties":{"omraadenavn":"Hjallesegade","adresse":"Torpvej 46","postnr":5260,"postdistrikt":"Odense S","long":10.389398,"lat":55.354597}},{"type":"Feature","id":"legepladser.75","geometry":{"type":"Point","coordinates":[10.365983,55.350177]},"geometry_name":"wkb_geometry","properties":{"omraadenavn":"Søparken","adresse":"Søparken 128","postnr":5260,"postdistrikt":"Odense S","long":10.365983,"lat":55.350177}},{"type":"Feature","id":"legepladser.76","geometry":{"type":"Point","coordinates":[10.432248,55.343339]},"geometry_name":"wkb_geometry","properties":{"omraadenavn":"Syvhøjevej","adresse":"Syvhøjevej 62","postnr":5260,"postdistrikt":"Odense S","long":10.432248,"lat":55.343339}},{"type":"Feature","id":"legepladser.77","geometry":{"type":"Point","coordinates":[10.4358,55.3336]},"geometry_name":"wkb_geometry","properties":{"omraadenavn":"Svendborgvej","adresse":"Svendborgvej 319A","postnr":5260,"postdistrikt":"Odense S","long":10.4358,"lat":55.3336}},{"type":"Feature","id":"legepladser.78","geometry":{"type":"Point","coordinates":[10.439565,55.329232]},"geometry_name":"wkb_geometry","properties":{"omraadenavn":"Højby syd","adresse":"Brobækvænget 27","postnr":5260,"postdistrikt":"Odense S","long":10.439565,"lat":55.329232}},{"type":"Feature","id":"legepladser.79","geometry":{"type":"Point","coordinates":[10.358626,55.423239]},"geometry_name":"wkb_geometry","properties":{"omraadenavn":"Karenvænget legeplads","adresse":"Karenvænget  23","postnr":5270,"postdistrikt":"Odense N","long":10.358626,"lat":55.423239}},{"type":"Feature","id":"legepladser.80","geometry":{"type":"Point","coordinates":[10.340727,55.427123]},"geometry_name":"wkb_geometry","properties":{"omraadenavn":"Næsbygårds anlæg","adresse":"Majorvangen 10-12","postnr":5270,"postdistrikt":"Odense N","long":10.340727,"lat":55.427123}},{"type":"Feature","id":"legepladser.81","geometry":{"type":"Point","coordinates":[10.369718,55.431172]},"geometry_name":"wkb_geometry","properties":{"omraadenavn":"Kluset anlæg","adresse":"Rosenholmvænget 32","postnr":5270,"postdistrikt":"Odense N","long":10.369718,"lat":55.431172}},{"type":"Feature","id":"legepladser.82","geometry":{"type":"Point","coordinates":[10.3713,55.4344]},"geometry_name":"wkb_geometry","properties":{"omraadenavn":"Rullekroskovene","adresse":"Anderupvænget 75","postnr":5270,"postdistrikt":"Odense N","long":10.3713,"lat":55.4344}},{"type":"Feature","id":"legepladser.83","geometry":{"type":"Point","coordinates":[10.381439,55.435536]},"geometry_name":"wkb_geometry","properties":{"omraadenavn":"Bispeengen anlæg","adresse":"Bispeengen 48-50","postnr":5270,"postdistrikt":"Odense N","long":10.381439,"lat":55.435536}},{"type":"Feature","id":"legepladser.84","geometry":{"type":"Point","coordinates":[10.396275,55.442441]},"geometry_name":"wkb_geometry","properties":{"omraadenavn":"Høstlyngen anlæg","adresse":"Høstlyngen 46-48","postnr":5270,"postdistrikt":"Odense N","long":10.396275,"lat":55.442441}},{"type":"Feature","id":"legepladser.85","geometry":{"type":"Point","coordinates":[10.4017,55.4399]},"geometry_name":"wkb_geometry","properties":{"omraadenavn":"Cypresvænget anlæg","adresse":"Cypresvænget nr.17-25","postnr":5270,"postdistrikt":"Odense N","long":10.4017,"lat":55.4399}},{"type":"Feature","id":"legepladser.86","geometry":{"type":"Point","coordinates":[10.4076,55.4401]},"geometry_name":"wkb_geometry","properties":{"omraadenavn":"Valnøddeparken","adresse":"Valnøddevej 28","postnr":5270,"postdistrikt":"Odense N","long":10.4076,"lat":55.4401}},{"type":"Feature","id":"legepladser.87","geometry":{"type":"Point","coordinates":[10.416805,55.435685]},"geometry_name":"wkb_geometry","properties":{"omraadenavn":"Færgevej anlæg","adresse":"Stigevej 324","postnr":5270,"postdistrikt":"Odense N","long":10.416805,"lat":55.435685}},{"type":"Feature","id":"legepladser.88","geometry":{"type":"Point","coordinates":[10.348543,55.418735]},"geometry_name":"wkb_geometry","properties":{"omraadenavn":"Stavids Ådal","adresse":"Stavisvej 47","postnr":5270,"postdistrikt":"Odense N","long":10.348543,"lat":55.418735}},{"type":"Feature","id":"legepladser.89","geometry":{"type":"Point","coordinates":[10.391065,55.430613]},"geometry_name":"wkb_geometry","properties":{"omraadenavn":"Form- og idrætsrum","adresse":"Nistedvej 63A","postnr":5270,"postdistrikt":"Odense N","long":10.391065,"lat":55.430613}},{"type":"Feature","id":"legepladser.90","geometry":{"type":"Point","coordinates":[10.361961,55.416223]},"geometry_name":"wkb_geometry","properties":{"omraadenavn":"Næsby Skovvænget anlæg","adresse":"Næsby Skovvænget 8","postnr":5270,"postdistrikt":"Odense N","long":10.361961,"lat":55.416223}},{"type":"Feature","id":"legepladser.91","geometry":{"type":"Point","coordinates":[10.324972,55.436283]},"geometry_name":"wkb_geometry","properties":{"omraadenavn":"Naturlegeplads","adresse":"Kirkendrupvej 16","postnr":5270,"postdistrikt":"Odense N","long":10.324972,"lat":55.436283}},{"type":"Feature","id":"legepladser.92","geometry":{"type":"Point","coordinates":[10.3565,55.4209]},"geometry_name":"wkb_geometry","properties":{"omraadenavn":"Elsebethvænget anlæg","adresse":"Elsebethvænget 3","postnr":5270,"postdistrikt":"Odense N","long":10.3565,"lat":55.4209}},{"type":"Feature","id":"legepladser.93","geometry":{"type":"Point","coordinates":[10.469738,55.429051]},"geometry_name":"wkb_geometry","properties":{"omraadenavn":"Pærehaven - Anlæg","adresse":"Pærehaven 9","postnr":5320,"postdistrikt":"Agedrup","long":10.469738,"lat":55.429051}},{"type":"Feature","id":"legepladser.94","geometry":{"type":"Point","coordinates":[10.476065,55.428461]},"geometry_name":"wkb_geometry","properties":{"omraadenavn":"Agedrup - Kvarterpark","adresse":"Mølledammen 3","postnr":5320,"postdistrikt":"Agedrup","long":10.476065,"lat":55.428461}},{"type":"Feature","id":"legepladser.95","geometry":{"type":"Point","coordinates":[10.477484,55.423326]},"geometry_name":"wkb_geometry","properties":{"omraadenavn":"Kærhaven og Skovhaven","adresse":"Skovhaven 77","postnr":5320,"postdistrikt":"Agedrup","long":10.477484,"lat":55.423326}},{"type":"Feature","id":"legepladser.96","geometry":{"type":"Point","coordinates":[10.38362,55.406894]},"geometry_name":"wkb_geometry","properties":{"omraadenavn":"Havnepladsen","adresse":"Havnepladsen 1","postnr":5000,"postdistrikt":"Odense C","long":10.38362,"lat":55.406894}},{"type":"Feature","id":"legepladser.97","geometry":{"type":"Point","coordinates":[10.384621,55.39105]},"geometry_name":"wkb_geometry","properties":{"omraadenavn":"Fittness i Munkemose","adresse":"Munke Mose Allé 8B","postnr":5000,"postdistrikt":"Odense C","long":10.384621,"lat":55.39105}},{"type":"Feature","id":"legepladser.98","geometry":{"type":"Point","coordinates":[10.446186,55.406331]},"geometry_name":"wkb_geometry","properties":{"omraadenavn":"Børnebyen","adresse":"Kildegårdsvej 40","postnr":5240,"postdistrikt":"Odense NØ","long":10.446186,"lat":55.406331}},{"type":"Feature","id":"legepladser.99","geometry":{"type":"Point","coordinates":[10.450668,55.43442]},"geometry_name":"wkb_geometry","properties":{"omraadenavn":"Jordrummet","adresse":"Ved Bullerupvej 84A","postnr":5240,"postdistrikt":"Odense NØ","long":10.450668,"lat":55.43442}}],"crs":{"type":"EPSG","properties":{"code":"4326"}},"bbox":[10.266222,55.325923,10.545222,55.449885]}