{"type":"FeatureCollection","features":[{"type":"Feature","id":"udsigtspunkter.1","geometry":{"type":"Point","coordinates":[10.5151,55.3185]},"geometry_name":"wkb_geometry","properties":{"navn":"Ibjerg i Tarup-Davinde               ","beskrivelse":"Smuk udsigt fra toppen af istidsåsen Ibjerg ud over Store Ibjerg Sø og videre ud i landskabet.                                                                                                                                             ","lat":55.3185,"long":10.5151}},{"type":"Feature","id":"udsigtspunkter.2","geometry":{"type":"Point","coordinates":[10.5377,55.3238]},"geometry_name":"wkb_geometry","properties":{"navn":"Rolighedsvej i Tarup-Davinde         ","beskrivelse":"Vid udsigt ud over grusgravslandskaberne i Tarup-Davinde fra Rolighedsvej syd for Davinde.                                                                                                                                                 ","lat":55.3238,"long":10.5377}},{"type":"Feature","id":"udsigtspunkter.3","geometry":{"type":"Point","coordinates":[10.4314,55.4521]},"geometry_name":"wkb_geometry","properties":{"navn":"Stige Ø nord                         ","beskrivelse":"Panoramaudsigt over Odense Fjord og en god del af Nordfyn. Du kan bl.a. se ud over Sorthusene, Koholmen, Vigelsø og til Lindøværftets kraner.                                                                                              ","lat":55.4521,"long":10.4314}},{"type":"Feature","id":"udsigtspunkter.4","geometry":{"type":"Point","coordinates":[10.426,55.4446]},"geometry_name":"wkb_geometry","properties":{"navn":"Stige Ø syd                          ","beskrivelse":"Fra den sydlige del af Stige Ø er der vid udsigt ud over Odense Fjord, Seden Strand, Odense Ås udløb, og ind mod Odense med Fynsværkets skorstene og Stiges drivhuse.                                                                      ","lat":55.4446,"long":10.426}},{"type":"Feature","id":"udsigtspunkter.5","geometry":{"type":"Point","coordinates":[10.4658,55.3843]},"geometry_name":"wkb_geometry","properties":{"navn":"Kohaveskoven                         ","beskrivelse":"Fin udsigt ud over de åbne arealer mellem Kohaveskoven og Lindved Å.                                                                                                                                                                       ","lat":55.3843,"long":10.4658}},{"type":"Feature","id":"udsigtspunkter.6","geometry":{"type":"Point","coordinates":[10.3253,55.3324]},"geometry_name":"wkb_geometry","properties":{"navn":"Odense Ådal ved Broholmvej           ","beskrivelse":"Der er mange fine udsigter langs Odense Å, og det kan være svært at fremhæve én frem for de andre. Men fra åstiens start ved Broholmvej i Bellinge er der en fin udsigt mod nord. Her fornemmes ådalens terræn tydeligt.                   ","lat":55.3324,"long":10.3253}},{"type":"Feature","id":"udsigtspunkter.7","geometry":{"type":"Point","coordinates":[10.3387,55.3816]},"geometry_name":"wkb_geometry","properties":{"navn":"Tusindårsskoven                      ","beskrivelse":"Fra kælkebakken i Tusindårsskoven er der en fin udsigt, selv om skoven efterhånden er blevet så høj at den spærrer for udsigten i nogle retninger.                                                                                         ","lat":55.3816,"long":10.3387}},{"type":"Feature","id":"udsigtspunkter.8","geometry":{"type":"Point","coordinates":[10.2514,55.4166]},"geometry_name":"wkb_geometry","properties":{"navn":"Djævlebakken i Hole skov             ","beskrivelse":"Fin udsigt ud over lille sø og videre ud over marker og skove.                                                                                                                                                                             ","lat":55.4166,"long":10.2514}},{"type":"Feature","id":"udsigtspunkter.9","geometry":{"type":"Point","coordinates":[10.3296,55.4262]},"geometry_name":"wkb_geometry","properties":{"navn":"Stavis Ådal nord for Villestofte     ","beskrivelse":"Der er mange fine udsigter i Stavis Ådal, men en af de bedste får du fra stien mellem Villestofte Skovgyde og Jernalderlandsbyen i Næsby. Her er en bænk, hvorfra du kan nyde udsigten.                                                    ","lat":55.4262,"long":10.3296}},{"type":"Feature","id":"udsigtspunkter.10","geometry":{"type":"Point","coordinates":[10.3485,55.4176]},"geometry_name":"wkb_geometry","properties":{"navn":"Stavis Ådal syd for Stavisvej i Næsby","beskrivelse":"Der er mange fine udsigter i Stavis Ådal, men dette er en af de bedste, med de afgræssede enge, den snoede å og skove på dalsiderne.                                                                                                       ","lat":55.4176,"long":10.3485}},{"type":"Feature","id":"udsigtspunkter.11","geometry":{"type":"Point","coordinates":[10.4285,55.4502]},"geometry_name":"wkb_geometry","properties":{"navn":"Stige Ø ved Legebasen                ","beskrivelse":"Fra de mange små bakker omkring Legebasen kan man se ud over det meste af Stige Ø, man kan se Odense Fjord, Odense Kanal og den nordlige del af Odense.                                                                                    ","lat":55.4502,"long":10.4285}},{"type":"Feature","id":"udsigtspunkter.12","geometry":{"type":"Point","coordinates":[10.432,55.3991]},"geometry_name":"wkb_geometry","properties":{"navn":"Odense Å ved Kulturbotanisk Have     ","beskrivelse":"Odense Å når den er allermest idyllisk - ved Kulturbotanisk Have. Her er opsat en bænk på en skråning med fin udsigt over åen.                                                                                                             ","lat":55.3991,"long":10.432}},{"type":"Feature","id":"udsigtspunkter.13","geometry":{"type":"Point","coordinates":[10.4228,55.4374]},"geometry_name":"wkb_geometry","properties":{"navn":"Odense Ås udløb                      ","beskrivelse":"Fin udsigt ud over åens udløb i Odense Fjord, lige der hvor Stige Ø starter. Her er åen og kanalen kun et stenkast fra hinanden. Du kan skue ud over flade strandenge, skove og vand, og kigge på lystbådehavnens fortøjrede både.         ","lat":55.4374,"long":10.4228}},{"type":"Feature","id":"udsigtspunkter.14","geometry":{"type":"Point","coordinates":[10.4571,55.4438]},"geometry_name":"wkb_geometry","properties":{"navn":"Seden Strandby                       ","beskrivelse":"Nord for Seden Strandby havn kan man gå et lille stykke langs Odense Fjord. Her er en fin udsigt over fjorden mod Stige Ø samt Vigelsø mod nord. Se f.eks. solen gå ned over fjorden fra dette sted.                                       ","lat":55.4438,"long":10.4571}},{"type":"Feature","id":"udsigtspunkter.15","geometry":{"type":"Point","coordinates":[10.4351,55.4104]},"geometry_name":"wkb_geometry","properties":{"navn":"Vollsmoses kælkebakker               ","beskrivelse":"Vid udsigt ud over Vollsmodse og den østlige del af odense fra de kunstige bakker i Vollsmose.                                                                                                                                             ","lat":55.4104,"long":10.4351}},{"type":"Feature","id":"udsigtspunkter.16","geometry":{"type":"Point","coordinates":[10.4149,55.3968]},"geometry_name":"wkb_geometry","properties":{"navn":"Ejby Mølle                           ","beskrivelse":"Fin udsigt ud over Odense Å fra Ejby Møllevej.                                                                                                                                                                                             ","lat":55.3968,"long":10.4149}},{"type":"Feature","id":"udsigtspunkter.17","geometry":{"type":"Point","coordinates":[10.1861,55.3681]},"geometry_name":"wkb_geometry","properties":{"navn":"Dyred Banke                          ","beskrivelse":"Odenses højeste punkt - 123 m over havet. Det er kun 8 m lavere end Frøbjerg Banke, der er Fyns højeste punkt. Og få cm højere end Kobanke, det højeste naturlige terrænpunkt på Sjælland.                                                 ","lat":55.3681,"long":10.1861}},{"type":"Feature","id":"udsigtspunkter.18","geometry":{"type":"Point","coordinates":[10.2781,55.3774]},"geometry_name":"wkb_geometry","properties":{"navn":"Ravnebjerg                           ","beskrivelse":"Vid udsigt ud over landskabet mod syd fra vejen mellem Ravnebjerg og Sanderum.                                                                                                                                                             ","lat":55.3774,"long":10.2781}},{"type":"Feature","id":"udsigtspunkter.19","geometry":{"type":"Point","coordinates":[10.337,55.4394]},"geometry_name":"wkb_geometry","properties":{"navn":"Kirkendrup                           ","beskrivelse":"Fin udsigt ud over det nordlige Odense fra lille bakke i kanten af Kirkendrup Skov                                                                                                                                                         ","lat":55.4394,"long":10.337}},{"type":"Feature","id":"udsigtspunkter.20","geometry":{"type":"Point","coordinates":[10.3625,55.424]},"geometry_name":"wkb_geometry","properties":{"navn":"Højvang i Næsby                      ","beskrivelse":"Fra broen hvor Højvang krydser Rismarksvej kan man se ud over Odense Kanal til skovene på den anden side. I disse år kan man også følge byggeriet af kanalforbindelsen.                                                                    ","lat":55.424,"long":10.3625}},{"type":"Feature","id":"udsigtspunkter.21","geometry":{"type":"Point","coordinates":[10.3801,55.4113]},"geometry_name":"wkb_geometry","properties":{"navn":"Skotlandskaj, Odense Havn            ","beskrivelse":"For enden af Englandsgade på Odense Havn venter der dig en fin udsigt. Her bliver havn til kanal, og kontrasten mellem den grønne vestside og den bebyggede østside træder tydeligt frem. Fin udsigt til Næsbyhoved Skov og lystbådehavnen.","lat":55.4113,"long":10.3801}},{"type":"Feature","id":"udsigtspunkter.22","geometry":{"type":"Point","coordinates":[10.364,55.3512]},"geometry_name":"wkb_geometry","properties":{"navn":"Søparken                             ","beskrivelse":"Udsigtsplatform på kanten af Odense Å, med udsigt over åen og sø med rigt fugleliv.                                                                                                                                                        ","lat":55.3512,"long":10.364}}],"crs":{"type":"EPSG","properties":{"code":"4326"}},"bbox":[10.1861,55.3185,10.5377,55.4521]}